26
$GNRMC,101516.000,A,2716.198704,S,15258.378273,E,0.054,0.00,281024,,,A,C*3C
$GNGGA,101516.000,2716.198704,S,15258.378273,E,1,25,0.6,43.4,M,37.7,M,,*6C
$GNVTG,0.00,T,,M,0.054,N,0.100,K,A*23
$GNGSA,A,3,32,10,28,02,21,31,,,,,,,1.2,0.6,1.0,1*3C
$GNGSA,A,3,77,69,,,,,,,,,,,1.2,0.6,1.0,2*39
$GNGSA,A,3,04,07,,,,,,,,,,,1.2,0.6,1.0,5*32
$GNGSA,A,3,08,15,03,,,,,,,,,,1.2,0.6,1.0,3*38
$GNGSA,A,3,39,19,20,35,36,38,03,44,40,13,22,10,1.2,0.6,1.0,4*3C
$GPGSV,2,1,08,28,62,053,26,32,48,153,29,21,46,232,36,31,42,005,30,1*67
$GPGSV,2,2,08,10,39,107,25,02,30,224,33,08,20,296,,23,10,081,,1*6D
$GLGSV,3,1,09,69,60,322,29,75,51,233,,78,39,235,,77,38,165,30,1*7D
$GLGSV,3,2,09,84,23,099,,76,21,004,,79,15,038,,87,08,276,,1*7E
$GLGSV,3,3,09,71,07,141,,,,,,,,,,,,,,1*44
$GQGSV,1,1,03,03,67,354,,04,61,261,31,07,47,314,35,,,,,1*56
$GAGSV,2,1,07,03,69,200,31,15,65,227,25,34,58,026,,08,38,288,36,7*76
$GAGSV,2,2,07,05,28,138,23,13,13,217,23,36,07,033,,,,,,7*47
$GBGSV,4,1,16,19,54,191,38,38,43,211,22,35,43,268,31,03,35,295,34,1*72
$GBGSV,4,2,16,29,33,347,13,20,30,127,28,22,25,255,30,39,22,338,26,1*71
$GBGSV,4,3,16,13,22,226,29,40,20,312,28,36,19,014,15,16,15,338,14,1*77
$GBGSV,4,4,16,10,15,291,17,44,14,226,30,37,14,124,,31,14,290,,1*72
$GNGLL,2716.198704,S,15258.378273,E,101516.000,A,A*58
$PSTMPPSDATA,1,1,1,0,1,0,0.500000,0,350,305,357,841,0,0,0,10,139,35,3,14,18,0,0,0,9.904e-09,65473984.33,26000010.33,4*21
$PSTMPOSHOLD,0,2716.198640,S,15258.378153,E,043.14*53
$PSTMTRAIMSTATUS,1,0,15,4,14,4,35*67
$PSTMTRAIMUSED,1,14,979,308,959,975,69,943,984,980,953,962,303,2,21,31*5C
$PSTMTRAIMRES,1,14,15,-9,-11,0,5,-4,-12,11,-3,0,-4,10,2,0*12
$PSTMTRAIMREMOVED,1,4,32,77,960,28*2A
$PSTMUTC,101516.000,28102024,1414145716,18,2*5C
$PSTMTG,2338,123335.00000002,0,2314767666,9,-47748.0622,a02a,143,0,0,2338,123335.00000002,9,254,6.129,0,18,2188908557,2262624,266334278*16
$GNRMC,101517.000,A,2716.198704,S,15258.378273,E,0.073,0.00,281024,,,A,C*38
$GNGGA,101517.000,2716.198704,S,15258.378273,E,1,25,0.6,43.4,M,37.7,M,,*6D
$GNVTG,0.00,T,,M,0.073,N,0.136,K,A*23
$GNGSA,A,3,32,10,28,02,21,31,,,,,,,1.2,0.6,1.0,1*3C
$GNGSA,A,3,77,69,,,,,,,,,,,1.2,0.6,1.0,2*39
$GNGSA,A,3,04,07,,,,,,,,,,,1.2,0.6,1.0,5*32
$GNGSA,A,3,08,15,03,,,,,,,,,,1.2,0.6,1.0,3*38
$GNGSA,A,3,39,19,20,35,36,38,03,44,40,13,22,10,1.2,0.6,1.0,4*3C
$GPGSV,2,1,08,28,62,053,26,32,48,153,29,21,46,232,36,31,42,005,30,1*67
$GPGSV,2,2,08,10,39,107,25,02,30,224,33,08,20,296,,23,10,081,,1*6D
$GLGSV,3,1,09,69,60,322,29,75,51,233,,78,39,235,,77,38,165,30,1*7D
$GLGSV,3,2,09,84,23,099,,76,21,004,,79,15,038,,87,08,276,,1*7E
$GLGSV,3,3,09,71,07,141,,,,,,,,,,,,,,1*44
$GQGSV,1,1,03,03,67,354,,04,61,261,31,07,47,314,35,,,,,1*56
$GAGSV,2,1,07,03,69,200,31,15,65,227,25,34,58,026,,08,38,288,36,7*76
$GAGSV,2,2,07,05,28,138,22,13,13,217,22,36,07,033,,,,,,7*47
$GBGSV,4,1,16,19,54,191,39,38,43,211,22,35,43,268,31,03,35,295,34,1*73
$GBGSV,4,2,16,29,33,347,13,20,30,127,28,22,25,255,30,39,22,338,25,1*72
$GBGSV,4,3,16,13,22,226,29,40,20,312,28,36,19,014,15,16,15,338,14,1*77
$GBGSV,4,4,16,10,15,291,18,44,14,226,30,37,14,124,,31,14,290,,1*7D
$GNGLL,2716.198704,S,15258.378273,E,101517.000,A,A*59
$PSTMPPSDATA,1,1,1,0,1,0,0.500000,0,350,305,357,841,0,0,0,10,139,36,3,13,18,0,0,0,1.402e-08,65473984.30,26000010.31,4*26
$PSTMPOSHOLD,0,2716.198640,S,15258.378155,E,043.14*55
$PSTMTRAIMSTATUS,1,0,15,4,13,4,36*63
$PSTMTRAIMUSED,1,13,308,959,975,69,943,984,980,953,962,303,2,21,31*40
$PSTMTRAIMRES,1,13,-10,-9,0,12,-5,-11,14,-2,1,-5,10,2,4*08
$PSTMTRAIMREMOVED,1,4,32,77,960,28*2A
$PSTMUTC,101517.000,28102024,1414145717,18,2*5C
$PSTMTG,2338,123336.00000002,0,2315790697,9,-47747.1795,a02a,143,0,0,2338,123336.00000002,9,254,6.215,0,18,2254446541,2263624,331420529*1F
$GNRMC,101518.000,A,2716.198704,S,15258.378273,E,0.101,0.00,281024,,,A,C*33
$GNGGA,101518.000,2716.198704,S,15258.378273,E,1,26,0.6,43.4,M,37.7,M,,*61
$GNVTG,0.00,T,,M,0.101,N,0.187,K,A*2D
$GNGSA,A,3,32,10,08,28,02,21,31,,,,,,1.2,0.6,1.0,1*34
$GNGSA,A,3,77,69,,,,,,,,,,,1.2,0.6,1.0,2*39
$GNGSA,A,3,04,07,,,,,,,,,,,1.2,0.6,1.0,5*32
$GNGSA,A,3,08,15,03,,,,,,,,,,1.2,0.6,1.0,3*38
$GNGSA,A,3,39,19,20,35,36,38,03,44,40,13,22,10,1.2,0.6,1.0,4*3C
$GPGSV,2,1,08,28,62,053,25,32,48,153,29,21,46,232,36,31,42,005,30,1*64
$GPGSV,2,2,08,10,39,107,25,02,30,224,33,08,20,296,21,23,10,081,,1*6E
$GLGSV,3,1,09,69,60,322,29,75,51,233,,78,39,235,,77,38,165,31,1*7C
$GLGSV,3,2,09,84,23,099,,76,21,004,,79,15,038,,87,08,276,,1*7E
$GLGSV,3,3,09,71,07,141,,,,,,,,,,,,,,1*44
$GQGSV,1,1,03,03,67,354,,04,61,261,31,07,47,314,35,,,,,1*56
$GAGSV,2,1,07,03,69,200,31,15,65,227,26,34,58,026,,08,38,288,36,7*75
$GAGSV,2,2,07,05,28,138,22,13,13,217,22,36,07,033,,,,,,7*47
$GBGSV,4,1,16,19,54,191,39,38,43,211,22,35,43,268,31,03,35,295,33,1*74
$GBGSV,4,2,16,29,33,347,13,20,30,127,28,22,25,255,30,39,22,338,25,1*72
$GBGSV,4,3,16,13,22,226,29,40,20,312,28,36,19,014,16,16,15,338,14,1*74
$GBGSV,4,4,16,10,15,291,18,44,14,226,30,37,14,124,,31,14,290,,1*7D
$GNGLL,2716.198704,S,15258.378273,E,101518.000,A,A*56
$PSTMPPSDATA,1,1,1,0,1,0,0.500000,0,350,305,357,841,0,0,0,10,139,37,3,13,18,0,0,0,3.818e-09,65473984.31,26000010.32,4*21
$PSTMPOSHOLD,0,2716.198641,S,15258.378158,E,043.14*59
$PSTMTRAIMSTATUS,1,0,15,0,13,4,37*66
$PSTMTRAIMUSED,1,13,308,959,77,975,69,943,984,980,953,962,303,21,31*72
$PSTMTRAIMRES,1,13,-7,-6,-6,2,10,0,-7,14,0,-1,-3,4,0*32
$PSTMTRAIMREMOVED,1,4,32,960,315,2*25
$PSTMUTC,101518.000,28102024,1414145718,18,2*5C
$PSTMTG,2338,123337.00000002,0,2316813728,9,-47747.5336,a02a,143,0,0,2338,123337.00000002,9,254,6.184,0,18,2319984525,2264624,396505578*1E
$GNRMC,101519.000,A,2716.198704,S,15258.378273,E,0.229,58.67,281024,,,A,C*07
$GNGGA,101519.000,2716.198704,S,15258.378273,E,1,25,0.6,43.4,M,37.7,M,,*63
$GNVTG,58.67,T,,M,0.229,N,0.424,K,A*14
$GNGSA,A,3,32,10,08,28,02,21,31,,,,,,1.2,0.6,1.0,1*34
$GNGSA,A,3,77,69,,,,,,,,,,,1.2,0.6,1.0,2*39
$GNGSA,A,3,04,07,,,,,,,,,,,1.2,0.6,1.0,5*32
$GNGSA,A,3,08,15,03,,,,,,,,,,1.2,0.6,1.0,3*38
$GNGSA,A,3,39,19,20,35,36,38,03,44,40,13,22,,1.2,0.6,1.0,4*3D
$GPGSV,2,1,08,28,62,053,25,32,48,153,29,21,46,232,36,31,42,005,30,1*64
$GPGSV,2,2,08,10,39,107,25,02,30,224,33,08,20,296,21,23,10,081,,1*6E
$GLGSV,3,1,09,69,60,322,29,75,51,233,,78,39,235,,77,38,165,31,1*7C
$GLGSV,3,2,09,84,23,099,,76,21,004,,79,15,038,,87,08,276,,1*7E
$GLGSV,3,3,09,71,07,141,,,,,,,,,,,,,,1*44
$GQGSV,1,1,03,03,67,354,,04,61,261,31,07,47,314,35,,,,,1*56
$GAGSV,2,1,07,03,69,200,31,15,65,227,26,34,58,026,,08,38,288,36,7*75
$GAGSV,2,2,07,05,28,138,22,13,13,217,22,36,07,033,,,,,,7*47
$GBGSV,4,1,16,19,54,191,39,38,43,211,22,35,43,268,30,03,35,295,34,1*72
$GBGSV,4,2,16,29,33,347,13,20,30,127,28,22,25,255,30,39,22,338,25,1*72
$GBGSV,4,3,16,13,22,226,29,40,20,312,28,36,19,014,16,16,15,338,14,1*74
$GBGSV,4,4,16,10,15,291,18,44,14,226,30,37,14,124,,31,14,290,,1*7D
$GNGLL,2716.198704,S,15258.378273,E,101519.000,A,A*57
$PSTMPPSDATA,1,1,1,0,1,0,0.500000,0,350,305,357,841,0,0,0,10,139,38,3,13,18,0,0,0,9.725e-09,65473984.35,26000010.33,4*20
$PSTMPOSHOLD,0,2716.198641,S,15258.378160,E,043.14*52
$PSTMTRAIMSTATUS,1,0,15,0,13,4,38*69
$PSTMTRAIMUSED,1,13,308,959,77,975,69,943,984,980,953,962,303,21,31*72
$PSTMTRAIMRES,1,13,-6,-5,-3,0,3,0,-7,15,0,0,-2,6,2*29
$PSTMTRAIMREMOVED,1,4,32,960,315,2*25
$PSTMUTC,101519.000,28102024,1414145719,18,2*5C